Time,Longitude,Latitude,Altitude,Roll (deg),Pitch (deg),Yaw (deg)
0.00,-116.6847222,32.72722222,34,-0.11536,-0.14832,295.76
4.00,-116.6847222,32.72722222,34,0.36255,-0.26917,295.25
8.00,-116.685,32.72722222,35,0.42297,-0.2417,297.27
11.00,-116.685,32.72722222,35,2.75E-02,0.73608,295.88
15.00,-116.685,32.72722222,35,0.18127,0.33508,294.53
19.00,-116.6852778,32.72722222,36,0.39001,0.36804,308.05
23.00,-116.6852778,32.7275,36,0.2417,2.75E-02,334.3
27.00,-116.6852778,32.7275,36,0.14832,0.36804,3.6365
31.00,-116.6852778,32.7275,36,-0.4834,0.30762,18.82
35.00,-116.685,32.72777778,36,-0.42297,0.18127,25.933
39.00,-116.685,32.72777778,36,-0.39551,0.12085,25.67
43.00,-116.685,32.72777778,35,-0.32959,0.12085,25.906
47.00,-116.685,32.72777778,35,-0.36255,0.12085,25.873
51.00,-116.685,32.72777778,35,-0.32959,0.15381,25.845
55.00,-116.685,32.72777778,35,-0.32959,0.12085,25.889
59.00,-116.685,32.72777778,35,-0.36255,0.15381,25.856
64.00,-116.685,32.72777778,34,-0.36804,0.1593,25.867
68.00,-116.685,32.72777778,34,-0.36255,0.12085,25.873
72.00,-116.685,32.72777778,34,-0.36255,0.15381,25.862
76.00,-116.685,32.72777778,34,-0.36255,0.14832,25.845
80.00,-116.685,32.72777778,35,-0.36255,0.12085,25.889
84.00,-116.685,32.72777778,35,-0.35706,0.12085,25.862
87.00,-116.685,32.72777778,35,-0.36255,0.15381,25.862
91.00,-116.685,32.72777778,35,-0.32959,0.14832,25.845
95.00,-116.685,32.72777778,35,-0.36804,0.1593,25.851
99.00,-116.685,32.72777778,35,-0.36255,0.15381,25.818
103.00,-116.685,32.72777778,35,-0.36804,9.34E-02,25.856
107.00,-116.685,32.72777778,35,-0.33508,-0.34058,25.9
111.00,-116.685,32.72777778,34,-0.34058,-0.46692,25.9
115.00,-116.685,32.72777778,35,-0.30212,-0.46143,25.917
119.00,-116.685,32.72777778,35,-0.33508,-0.30762,25.906
123.00,-116.685,32.72777778,34,-0.33508,-0.28015,25.9
127.00,-116.685,32.72777778,34,-0.33508,-0.28015,25.917
131.00,-116.685,32.72777778,34,-0.33508,-0.43396,25.917
135.00,-116.685,32.72777778,34,-0.30212,-0.30762,25.944
139.00,-116.685,32.72805556,35,-8.79E-02,-0.21423,26.197
144.00,-116.6844444,32.72861111,35,-0.2417,-8.79E-02,26.29
148.00,-116.6838889,32.72972222,35,0.21423,-0.12085,25.598
152.00,-116.6830556,32.73138889,35,0.21423,-2.75E-02,25.17
156.00,-116.6822222,32.73361111,36,-0.30762,0.24719,25.615
160.00,-116.6808333,32.73638889,37,-0.27466,0.46692,25.692
163.00,-116.6791667,32.73944444,41,0.63721,11.843,26.378
167.00,-116.6775,32.74305556,97,2.0764,12.634,26.587
171.00,-116.6755556,32.74666667,206,-3.7573,13.903,27.109
175.00,-116.6736111,32.75055556,369,-6.015,13.997,26.093
179.00,-116.6716667,32.755,586,-3.4332,13.48,24.274
183.00,-116.6697222,32.75972222,808,-0.2417,11.47,24.153
187.00,-116.6675,32.76472222,1012,-2.3236,11.245,23.89
191.00,-116.665,32.77,1255,-0.95032,7.6849,23.791
195.00,-116.6625,32.77583333,1387,-1.0492,3.2465,23.286
199.00,-116.66,32.78194444,1405,1.1371,2.1478,24.329
203.00,-116.6572222,32.78833333,1372,4.021,1.9995,24.576
207.00,-116.6541667,32.79472222,1384,-8.79E-02,4.5868,25.582
211.00,-116.6511111,32.80111111,1494,-1.8347,4.8395,24.576
215.00,-116.6480556,32.80777778,1664,-0.2417,7.4597,24.5
220.00,-116.6452778,32.81472222,1893,-3.7408,7.663,23.412
224.00,-116.6422222,32.82138889,2152,-4.9493,9.1187,22.462
228.00,-116.6394444,32.82833333,2505,-3.642,10.915,21.907
232.00,-116.6366667,32.83527778,2927,-2.027,11.547,21.407
236.00,-116.6338889,32.84194444,3368,-0.18127,11.777,21.039
240.00,-116.6313889,32.84888889,3808,1.9446,10.679,21.116
243.00,-116.6286111,32.85555556,4209,1.2524,10.042,21.33
247.00,-116.6261111,32.86222222,4570,0.12085,9.7833,21.16
251.00,-116.6233333,32.86888889,4920,-2.0435,10.129,20.33
255.00,-116.6208333,32.87555556,5246,-1.3513,9.3109,20.462
259.00,-116.6180556,32.88222222,5532,1.4172,8.0859,20.599
263.00,-116.6155556,32.88888889,5776,2.2961,7.1796,21.33
267.00,-116.6130556,32.89555556,5998,-2.5983,7.5751,20.731
271.00,-116.6102778,32.90222222,6237,-0.92285,7.0972,20.253
275.00,-116.6077778,32.90888889,6419,2.2577,5.9161,20.649
279.00,-116.6052778,32.91583333,6562,5.4163,6.9049,21.676
283.00,-116.6025,32.9225,6757,-1.4117,7.5201,21.731
287.00,-116.5997222,32.92916667,6972,-0.39001,7.6685,21.533
291.00,-116.5969444,32.93611111,7224,0.82947,9.5526,21.654
296.00,-116.5941667,32.94277778,7534,0.61523,10.195,21.462
300.00,-116.5913889,32.94972222,7878,-5.8612,9.0967,21.484
304.00,-116.5886111,32.95666667,8180,6.5588,8.7177,21.484
308.00,-116.5858333,32.96333333,8448,26.966,8.1024,26.18
312.00,-116.5825,32.96972222,8686,20.154,8.7396,30.487
316.00,-116.5788889,32.97583333,8926,21.522,8.822,34.75
319.00,-116.5747222,32.98166667,9157,22.753,8.6188,39.446
323.00,-116.5702778,32.98694444,9375,26.466,7.8827,45.154
327.00,-116.5652778,32.99194444,9574,22.742,8.9539,50.186
331.00,-116.56,32.99638889,9788,11.052,8.4869,54.229
335.00,-116.5544444,33.00027778,9999,10.19,8.5803,55.388
339.00,-116.5486111,33.00444444,10203,6.9434,8.3496,56.926
343.00,-116.5427778,33.00833333,10413,4.7296,8.6627,58.013
347.00,-116.5366667,33.01222222,10624,1.2524,8.2068,58.162
351.00,-116.5305556,33.01611111,10830,1.9061,7.5641,58.271
355.00,-116.5244444,33.01972222,11032,0.69763,7.5916,58.37
359.00,-116.5183333,33.02361111,11219,1.5985,6.8939,58.392
363.00,-116.5119444,33.0275,11375,-1.7853,5.9436,58.03
367.00,-116.5058333,33.03138889,11512,-0.48889,5.8612,58.14
372.00,-116.4994444,33.03555556,11669,0.36804,6.1963,58.321
376.00,-116.4930556,33.03944444,11834,0.15381,6.5479,58.14
380.00,-116.4863889,33.04361111,11991,6.04E-02,5.5756,57.805
384.00,-116.48,33.04777778,12122,-1.0712,4.7021,57.711
388.00,-116.4733333,33.05194444,12251,-0.26917,5.603,57.546
392.00,-116.4666667,33.05611111,12409,21.929,6.0974,59.914
395.00,-116.4597222,33.05972222,12567,38.853,5.9546,67.495
399.00,-116.4522222,33.0625,12723,47.335,5.2405,76.761
403.00,-116.4441667,33.06416667,12842,59.93,4.9219,90.747
407.00,-116.4363889,33.06361111,12944,56.711,4.9933,104.39
411.00,-116.4286111,33.06111111,13055,56.558,6.2238,120.4
415.00,-116.4219444,33.05694444,13176,49.351,6.2402,132.14
419.00,-116.4166667,33.05138889,13330,49.812,8.3331,145.86
423.00,-116.4127778,33.04527778,13567,45.412,10.333,159.19
427.00,-116.4102778,33.03833333,13866,45.06,12.321,171.59
431.00,-116.4094444,33.03138889,14229,5.2954,11.997,175.23
435.00,-116.4088889,33.02444444,14576,5.1086,10.767,177.01
439.00,-116.4083333,33.0175,14859,1.0876,10.327,176.87
443.00,-116.4077778,33.01027778,15081,-0.35706,7.6849,176.65
448.00,-116.4072222,33.00333333,15227,2.6642,6.1084,177.36
452.00,-116.4066667,32.99611111,15331,3.8947,6.5588,177.94
456.00,-116.4063889,32.98888889,15445,4.1638,5.7404,178.65
460.00,-116.4061111,32.98138889,15543,3.0432,5.8667,179.17
464.00,-116.4058333,32.97416667,15625,1.4282,5.0482,179.26
468.00,-116.4055556,32.96666667,15715,2.774,6.0919,179.92
472.00,-116.4052778,32.95916667,15840,2.6917,6.7181,180.02
475.00,-116.4052778,32.95138889,15998,3.9221,7.8662,180.44
479.00,-116.4052778,32.94388889,16180,0.39551,6.4929,180.45
483.00,-116.4052778,32.93611111,16328,0.45044,5.658,180.68
487.00,-116.4052778,32.92833333,16438,-0.63171,5.1141,180.51
491.00,-116.405,32.92027778,16520,-2.0599,3.4497,180.12
495.00,-116.405,32.9125,16559,0.45044,4.3506,180.05
499.00,-116.405,32.90444444,16626,-1.2964,3.6969,179.92
503.00,-116.4047222,32.89611111,16665,-0.83496,3.1366,179.47
507.00,-116.4047222,32.88777778,16697,1.7908,4.0265,179.79
511.00,-116.4044444,32.87944444,16771,1.6534,4.3671,179.88
515.00,-116.4044444,32.87111111,16867,1.4557,4.8669,179.79
519.00,-116.4044444,32.8625,16989,19.479,5.4218,181.52
524.00,-116.405,32.85388889,17135,29.141,5.7513,187.26
528.00,-116.4061111,32.84555556,17322,35.25,7.0697,194.77
532.00,-116.4083333,32.8375,17537,38.469,7.0313,201.97
536.00,-116.4116667,32.82972222,17732,39.803,6.2787,209.3
540.00,-116.4158333,32.82222222,17919,4.5813,8.0475,212.07
544.00,-116.4202778,32.815,18161,-2.8455,5.592,211.55
548.00,-116.4244444,32.8075,18327,-36.343,6.5588,208.3
551.00,-116.4280556,32.8,18478,-55.893,5.1526,195.43
555.00,-116.4297222,32.79166667,18558,-60.018,2.6807,183.35
559.00,-116.43,32.78305556,18537,-54.141,1.972,170.52
563.00,-116.4280556,32.77472222,18491,-53.86,2.3236,157.02
567.00,-116.4247222,32.76694444,18467,-50.674,3.0981,144.41
568.00,-116.4236111,32.76527778,18465,-51.268,3.0927,141.32
570.00,-116.4222222,32.76361111,18463,-50.548,3.4882,137.77
570.00,-116.4208333,32.76166667,18464,-50.68,3.4387,134.73
571.00,-116.4194444,32.76027778,18469,-51.356,3.2684,132.07
572.00,-116.4180556,32.75861111,18473,-49.526,3.3618,129.29
574.00,-116.4163889,32.75722222,18477,-49.411,3.7683,126.11
574.00,-116.415,32.75583333,18484,-49.213,3.9441,123.06
575.00,-116.4130556,32.75472222,18493,-50.268,3.7848,120.34
576.00,-116.4113889,32.75333333,18501,-49.411,3.9606,117.36
578.00,-116.4097222,32.75222222,18513,-48.719,4.2737,114.42
578.00,-116.4077778,32.75138889,18526,-47.78,3.988,112.08
579.00,-116.4058333,32.75027778,18539,-45.912,4.0649,109.68
580.00,-116.4038889,32.74972222,18553,-43.5,4.5703,107.1
582.00,-116.4019444,32.74888889,18572,-41.061,5.6085,104.39
583.00,-116.4,32.74833333,18598,-42.682,5.658,102.29
583.00,-116.3980556,32.7475,18628,-37.579,4.8505,100.9
584.00,-116.3961111,32.74722222,18656,-25.505,4.043,100.8
586.00,-116.3938889,32.74666667,18679,-15.057,4.054,100.61
587.00,-116.3919444,32.74611111,18699,-13.035,5.1196,100.03
587.00,-116.39,32.74583333,18725,-9.2834,5.213,99.476
588.00,-116.3877778,32.74527778,18753,-5.9216,4.9054,99.476
589.00,-116.3858333,32.745,18782,0.27466,5.0372,99.646
591.00,-116.3836111,32.74472222,18812,2.6917,5.0482,99.976
591.00,-116.3816667,32.74416667,18842,2.851,4.9438,99.943
592.00,-116.3797222,32.74388889,18872,1.9006,5.4382,99.91
593.00,-116.3775,32.74333333,18908,1.9061,6.2073,100.04
595.00,-116.3755556,32.74305556,18945,1.4722,6.85,100.05
595.00,-116.3736111,32.7425,18990,1.1975,8.3881,100.02
599.00,-116.365,32.74083333,19299,-0.84045,7.9926,100.36
604.00,-116.3566667,32.73972222,19656,-59.035,13.019,82.694
608.00,-116.3488889,32.74083333,20252,-52.267,22.269,60.87
612.00,-116.3427778,32.74472222,21093,-66.907,24.109,29.707
616.00,-116.3397222,32.75,21953,-65.577,28.817,2.3236
620.00,-116.3391667,32.75527778,22757,-80.563,22.088,344.59
624.00,-116.3408333,32.76027778,23267,-76.657,13.233,320.57
627.00,-116.3438889,32.76416667,23462,-59.502,12.42,301.17
631.00,-116.3477778,32.76666667,23486,-51.685,11.838,281.71
633.00,-116.3488889,32.76694444,23476,-50.18,12.629,277.3
633.00,-116.35,32.76722222,23466,-46.84,13.112,273.45
634.00,-116.3511111,32.7675,23456,-44.89,13.195,270.34
635.00,-116.3522222,32.76777778,23444,-43.149,12.7,267.76
637.00,-116.3533333,32.76777778,23430,-42.451,12.827,264.4
638.00,-116.3544444,32.76777778,23414,-41.896,12.354,261.17
638.00,-116.3555556,32.76777778,23394,-40.897,12.431,257.05
639.00,-116.3566667,32.76777778,23372,-39.287,13.277,252.48
641.00,-116.3577778,32.7675,23349,-41.166,13.661,248.89
642.00,-116.3586111,32.76722222,23327,-38.562,13.118,245.93
642.00,-116.3597222,32.76694444,23303,-38.677,11.805,243.62
643.00,-116.3608333,32.76666667,23276,-37.776,10.311,241.28
645.00,-116.3616667,32.76611111,23242,-36.145,9.8108,238.14
646.00,-116.3627778,32.76583333,23205,-35.92,10.316,234.77
646.00,-116.3636111,32.76527778,23166,-36.013,10.333,231.95
647.00,-116.3644444,32.76472222,23125,-34.761,9.6295,229.52
648.00,-116.3655556,32.76416667,23081,-33.041,9.1187,226.81
650.00,-116.3663889,32.76361111,23034,-29.597,8.421,224.4
650.00,-116.3672222,32.76277778,22980,-23.665,5.6744,223.5
651.00,-116.3680556,32.76222222,22923,-26.257,4.4055,222.57
652.00,-116.3688889,32.76138889,22860,-22.335,4.7571,220.79
654.00,-116.3694444,32.76055556,22793,-17.358,4.2682,219.65
654.00,-116.3702778,32.75972222,22724,-17.084,3.0048,219.35
655.00,-116.3711111,32.75888889,22650,-13.266,2.1313,219.09
656.00,-116.3719444,32.75805556,22572,-10.245,2.1753,218.95
658.00,-116.3725,32.75722222,22493,-8.0145,2.7301,218.95
659.00,-116.3733333,32.75638889,22413,-4.9933,2.2302,219.06
659.00,-116.3741667,32.75555556,22333,-6.839,1.4063,219.25
660.00,-116.375,32.75444444,22253,-8.7231,1.6589,218.52
662.00,-116.3758333,32.75361111,22172,-8.9813,2.4884,216.92
663.00,-116.3763889,32.7525,22094,-9.9316,2.9608,215.55
663.00,-116.3772222,32.75166667,22020,-10.563,2.4609,214.87
664.00,-116.3780556,32.75055556,21947,-5.5316,1.6589,214.55
665.00,-116.3788889,32.74944444,21874,-3.3234,1.5765,215.29
667.00,-116.3797222,32.74833333,21801,-0.44495,2.3621,216.13
667.00,-116.3805556,32.74722222,21731,-4.7626,3.3344,216.21
668.00,-116.3811111,32.74611111,21665,-1.7688,4.4495,214.89
669.00,-116.3819444,32.745,21607,-5.224,5.5371,214.12
671.00,-116.3827778,32.74388889,21558,-3.5321,6.0205,213.89
671.00,-116.3836111,32.74277778,21515,-4.4604,6.1029,213.89
672.00,-116.3844444,32.74138889,21480,-1.8787,6.4105,213.72
673.00,-116.3852778,32.74027778,21450,-1.6919,7.3444,213.84
675.00,-116.3861111,32.73916667,21427,-0.73059,8.4155,213.85
675.00,-116.3869444,32.73777778,21412,-4.3726,9.1681,213.62
676.00,-116.3877778,32.73666667,21404,-17.65,9.9536,211.57
677.00,-116.3886111,32.73527778,21404,-20.264,10.486,207.09
679.00,-116.3891667,32.73416667,21411,-29.24,11.607,203.66
680.00,-116.39,32.73277778,21426,-31.097,12.821,200.39
680.00,-116.3905556,32.73138889,21451,-34.519,14.013,196.83
681.00,-116.3911111,32.73027778,21484,-36.068,15.32,192.64
683.00,-116.3916667,32.72888889,21526,-42.72,16.375,188.25
686.00,-116.3925,32.72333333,21732,-60.54,12.98,164.11
690.00,-116.3916667,32.71833333,21839,-62.864,8.4869,141.2
694.00,-116.3891667,32.71416667,21746,-94.609,-14.431,114.8
698.00,-116.3858333,32.71194444,21158,-95.065,-34.052,84.891
702.00,-116.3825,32.71194444,20013,-68.972,-46.274,40.633
706.00,-116.3802778,32.71388889,18477,-42.874,-41.44,357.78
710.00,-116.3805556,32.71777778,17015,-22.22,-27.164,329.61
714.00,-116.3827778,32.7225,15891,-0.14832,-9.4867,330.4
718.00,-116.3852778,32.72777778,15365,24.73,10.305,343.97
722.00,-116.3863889,32.73333333,15517,39.375,21.973,5.5536
726.00,-116.3855556,32.73861111,15990,51.334,24.741,22.165
730.00,-116.3836111,32.74305556,16488,58.799,21.105,42.089
735.00,-116.3805556,32.74638889,16846,58.442,15.661,59.354
739.00,-116.3763889,32.74861111,17037,66.264,10.201,82.238
743.00,-116.3716667,32.74944444,17046,69.038,-0.45593,106.07
747.00,-116.3672222,32.74805556,16803,58.727,-3.5211,129.38
751.00,-116.3636111,32.74527778,16411,54.948,-5.4767,153.31
755.00,-116.3611111,32.74111111,15994,10.92,0.30212,155.99
756.00,-116.3605556,32.74,15909,4.5154,0.61523,155.75
756.00,-116.36,32.73888889,15831,4.3671,1.0876,155.86
757.00,-116.3594444,32.7375,15760,-0.33508,1.8622,156.45
759.00,-116.3586111,32.73638889,15697,-7.0148,3.3948,155.48
760.00,-116.3580556,32.735,15645,-30.515,4.4714,151.28
760.00,-116.3575,32.73388889,15600,-40.375,4.6637,142.93
761.00,-116.3566667,32.73277778,15566,-50.032,5.4712,135.29
762.00,-116.3558333,32.73166667,15546,-52.482,5.9491,129
764.00,-116.3547222,32.73055556,15534,-57.448,5.1965,123.9
768.00,-116.35,32.7275,15495,-56.338,5.8447,99.547
772.00,-116.3447222,32.72666667,15487,-54.311,6.2347,80.964
776.00,-116.3394444,32.7275,15436,-53.163,3.4003,62.045
780.00,-116.3344444,32.73,15298,-66.544,-1.0602,38.628
783.00,-116.3308333,32.73416667,14980,-66.242,-6.5479,15.189
787.00,-116.3288889,32.73972222,14411,-75.394,-18.04,348.26
791.00,-116.33,32.745,13569,-60.222,-16.979,317.49
795.00,-116.3341667,32.74916667,12775,-51.965,-8.9209,285.38
797.00,-116.3355556,32.74972222,12621,-52.35,-6.2238,277.15
798.00,-116.3369444,32.75027778,12485,-54.948,-3.8452,267.56
798.00,-116.3383333,32.75055556,12384,-56.047,-2.3621,259.18
799.00,-116.34,32.75027778,12295,-54.756,-0.20874,250.1
800.00,-116.3413889,32.75,12231,-56.827,2.1918,242.12
802.00,-116.3427778,32.74972222,12185,-59.908,2.785,234.39
802.00,-116.3438889,32.74916667,12150,-58.365,1.8951,227.47
803.00,-116.3452778,32.74833333,12121,-51.185,1.4063,225.86
804.00,-116.3461111,32.7475,12093,-48.186,2.6038,223.54
806.00,-116.3472222,32.74638889,12064,-40.979,1.8732,220.74
806.00,-116.3483333,32.74527778,12037,-37.864,2.0819,218.39
807.00,-116.3491667,32.74416667,12015,-33.591,2.4664,216.4
808.00,-116.3502778,32.74305556,11995,-32.679,2.7356,214.22
810.00,-116.3511111,32.74194444,11979,-31.064,2.796,211.89
811.00,-116.3519444,32.74055556,11966,-29.081,2.9883,210.04
811.00,-116.3527778,32.73916667,11956,-26.658,4.6527,207.68
812.00,-116.3536111,32.73777778,11959,-16.271,8.4045,205.25
814.00,-116.3544444,32.73638889,11989,-4.9878,15.463,205.15
815.00,-116.355,32.735,12068,-3.175,26.208,206.03
815.00,-116.3558333,32.73361111,12208,-21.731,27.01,204.04
816.00,-116.3563889,32.7325,12377,-62.347,20.709,194.43
818.00,-116.3566667,32.73111111,12538,-94.048,14.557,186.62
819.00,-116.3569444,32.72972222,12671,-89.028,11.563,179.46
819.00,-116.3572222,32.72805556,12775,-79.113,11.135,174.85
820.00,-116.3572222,32.72666667,12859,-79.486,10.541,171.33
821.00,-116.3569444,32.72527778,12919,-81.628,6.9708,164.77
823.00,-116.3566667,32.72361111,12964,-81.771,3.3948,156.54
823.00,-116.3563889,32.72222222,12981,-80.469,2.6752,148.43
827.00,-116.3527778,32.7175,12888,-72.488,-1.7908,117.28
832.00,-116.3477778,32.71527778,12692,-59.529,0.4834,93.181
836.00,-116.3419444,32.71527778,12521,-58.414,2.417,67.44
840.00,-116.3366667,32.71777778,12431,-60.546,5.1196,38.051
844.00,-116.3333333,32.72222222,12409,-58.931,6.9818,12.167
848.00,-116.3322222,32.7275,12423,-57.656,7.1686,348.41
852.00,-116.3333333,32.73305556,12437,-50.356,7.4817,330.93
853.00,-116.3336111,32.73444444,12444,-47.422,8.3167,326.11
853.00,-116.3341667,32.73555556,12455,-46.544,8.0585,322.42
854.00,-116.335,32.73666667,12470,-48.752,7.7948,319.21
856.00,-116.3358333,32.73777778,12483,-48.329,7.7289,315.13
857.00,-116.3366667,32.73888889,12496,-43.698,6.9763,311.85
857.00,-116.3375,32.74,12508,-27.328,5.0372,311.81
858.00,-116.3383333,32.74083333,12512,-10.811,3.197,313.79
859.00,-116.3394444,32.74194444,12505,2.8015,1.8896,314.82
861.00,-116.3402778,32.74277778,12486,9.7888,1.7249,315.13
861.00,-116.3411111,32.74388889,12460,13.788,2.428,316.28
862.00,-116.3422222,32.745,12432,19.896,2.5543,317.92
863.00,-116.3430556,32.74611111,12404,22.363,1.7523,319.56
865.00,-116.3441667,32.74722222,12373,24.977,1.8182,321.34
865.00,-116.345,32.74833333,12341,29.064,1.4941,322.94
866.00,-116.3458333,32.74944444,12306,34.503,0.69214,324.88
867.00,-116.3466667,32.75083333,12266,38.117,-0.30762,327.22
869.00,-116.3475,32.75194444,12219,37.04,-1.0107,329.3
870.00,-116.3483333,32.75333333,12166,31.404,-1.4117,330.69
870.00,-116.3491667,32.75472222,12109,28.976,-1.3623,331.97
871.00,-116.35,32.75611111,12049,31.816,-1.181,333.83
873.00,-116.3505556,32.7575,11989,35.096,-0.84595,336.87
874.00,-116.3511111,32.75916667,11929,37.831,-0.66467,339.68
874.00,-116.3516667,32.76055556,11874,38.584,0.14832,342.71
875.00,-116.3522222,32.76222222,11823,39.666,0.7251,345.47
877.00,-116.3527778,32.76388889,11781,40.979,0.89539,348.13
878.00,-116.3530556,32.76555556,11737,44.973,1.2195,351.99
878.00,-116.3533333,32.76722222,11700,46.252,1.236,355.24
879.00,-116.3536111,32.76888889,11666,47.653,1.626,358.97
880.00,-116.3536111,32.77083333,11636,48.999,2.2302,3.2245
882.00,-116.3536111,32.7725,11611,49.905,2.6093,7.2949
882.00,-116.3533333,32.77416667,11589,52.191,2.1149,10.366
883.00,-116.3530556,32.77583333,11568,53.146,1.6205,14.293
884.00,-116.3527778,32.7775,11544,53.635,1.6864,18.155
886.00,-116.3522222,32.77916667,11519,52.273,2.2961,22.714
887.00,-116.3516667,32.78083333,11497,52.652,2.9553,27.219
887.00,-116.3511111,32.7825,11478,53.542,2.9993,31.3
888.00,-116.3502778,32.78388889,11463,55.931,3.7683,37.112
890.00,-116.3491667,32.78527778,11451,56.876,4.3286,43.028
891.00,-116.3483333,32.78666667,11446,58.442,4.6692,48.318
891.00,-116.3472222,32.78777778,11444,58.079,5.1416,54.212
892.00,-116.3458333,32.78888889,11447,58.486,5.6305,59.584
894.00,-116.3444444,32.79,11453,57.118,6.1249,65.154
895.00,-116.3430556,32.79083333,11462,57.788,6.8829,70.637
895.00,-116.3416667,32.79138889,11476,56.684,7.207,75.668
896.00,-116.3402778,32.79194444,11493,55.052,7.7124,80.859
897.00,-116.3386111,32.79222222,11514,55.223,8.476,85.754
899.00,-116.3372222,32.7925,11540,54.108,8.4375,90.099
899.00,-116.3355556,32.79277778,11567,56.349,8.3826,94.757
900.00,-116.3341667,32.79277778,11595,54.333,7.9706,99.432
901.00,-116.3325,32.79277778,11624,41.188,9.3604,103.22
903.00,-116.3311111,32.7925,11663,26.274,12.805,104.28
903.00,-116.3297222,32.79222222,11718,16.963,15.024,103.6
904.00,-116.3280556,32.79194444,11789,15.601,14.881,103.48
905.00,-116.3266667,32.79166667,11868,21.324,13.656,105.1
907.00,-116.3252778,32.79138889,11947,23.654,13.074,107.14
908.00,-116.3238889,32.79111111,12023,23.313,13.513,108.65
908.00,-116.3225,32.79055556,12101,20.781,14.052,109.7
909.00,-116.3211111,32.79027778,12180,16.793,14.376,110.75
911.00,-116.3197222,32.78972222,12266,14.041,14.985,111.43
912.00,-116.3183333,32.78916667,12352,10.058,15.425,111.84
912.00,-116.3169444,32.78861111,12441,4.9164,14.683,111.6
913.00,-116.3155556,32.78833333,12528,2.384,12.563,111.02
915.00,-116.3141667,32.78777778,12605,0.70313,8.6627,110.9
916.00,-116.3127778,32.78722222,12661,0.81299,3.2135,110.99
916.00,-116.3113889,32.78666667,12687,2.5818,9.34E-02,111.17
917.00,-116.31,32.78611111,12681,3.4003,-2.0984,111.19
918.00,-116.3086111,32.78555556,12644,4.8175,-6.438,110.92
920.00,-116.3072222,32.785,12573,6.5039,-9.9756,110.81
920.00,-116.3055556,32.78444444,12471,9.4208,-12.881,110.91
921.00,-116.3041667,32.78388889,12338,10.272,-12.816,111.49
922.00,-116.3027778,32.78333333,12186,9.3494,-10.717,112.65
924.00,-116.3011111,32.78277778,12033,8.6957,-8.2672,113.4
924.00,-116.2997222,32.78222222,11891,7.0697,-4.4824,114.09
925.00,-116.2980556,32.78166667,11778,4.433,0.60974,114.82
926.00,-116.2966667,32.78083333,11705,4.2847,4.0594,114.97
928.00,-116.295,32.78027778,11672,3.5266,7.218,115.28
929.00,-116.2933333,32.77944444,11677,3.1915,10.624,115.65
929.00,-116.2919444,32.77888889,11716,3.5541,13.596,115.96
930.00,-116.2902778,32.77805556,11788,3.8947,14.661,116.18
932.00,-116.2888889,32.7775,11881,2.1313,15.529,116.36
933.00,-116.2875,32.77694444,11984,3.2245,16.397,116.22
933.00,-116.2858333,32.77611111,12103,3.4442,17.353,116.58
934.00,-116.2841667,32.77527778,12245,3.7848,17.759,116.76
935.00,-116.2827778,32.77472222,12381,1.5326,17.704,116.72
937.00,-116.2813889,32.77388889,12518,0.12085,18.023,116.53
937.00,-116.28,32.77333333,12658,-0.7251,18.644,116.44
938.00,-116.2786111,32.7725,12800,1.0492,18.776,116.5
939.00,-116.2772222,32.77194444,12944,2.7246,19.363,116.68
941.00,-116.2758333,32.77138889,13089,2.4774,20.012,116.8
941.00,-116.2744444,32.77055556,13237,2.2467,19.737,116.66
942.00,-116.2730556,32.77,13383,3.5046,19.55,116.56
943.00,-116.2716667,32.76916667,13527,3.175,19.281,116.67
945.00,-116.2702778,32.76861111,13669,2.6093,19.248,116.67
946.00,-116.2688889,32.76805556,13807,4.0704,17.847,116.52
946.00,-116.2677778,32.76722222,13937,13.7,16.024,116.85
947.00,-116.2663889,32.76666667,14056,20.127,14.87,118.05
949.00,-116.265,32.76583333,14163,25.779,14.453,119.72
950.00,-116.2636111,32.76527778,14261,27.559,14.063,121.45
950.00,-116.2625,32.76444444,14352,27.471,13.145,122.62
951.00,-116.2611111,32.76361111,14435,27.471,12.508,123.72
953.00,-116.26,32.76277778,14510,26.62,12.145,125.12
954.00,-116.2586111,32.76194444,14580,25.549,11.931,126.58
954.00,-116.2575,32.76111111,14645,25.263,11.706,127.96
955.00,-116.2561111,32.76027778,14706,25.67,11.288,129.36
956.00,-116.255,32.75944444,14764,25.329,10.756,130.81
958.00,-116.2538889,32.75833333,14817,26.208,10.184,132.21
958.00,-116.2527778,32.7575,14865,26.647,9.6515,133.59
959.00,-116.2516667,32.75638889,14908,25.329,9.1791,135.03
960.00,-116.2505556,32.75527778,14947,27.191,9.1846,136.65
962.00,-116.2494444,32.75444444,14980,26.768,9.6405,138.76
962.00,-116.2483333,32.75333333,15012,27.422,10.14,140.72
963.00,-116.2472222,32.75194444,15048,26.84,10.975,142.87
964.00,-116.2463889,32.75083333,15087,25.549,11.772,144.77
966.00,-116.2452778,32.74972222,15131,24.911,12.382,146.44
967.00,-116.2444444,32.74861111,15181,24.835,12.909,148.06
967.00,-116.2436111,32.74722222,15236,25.637,13.222,149.79
968.00,-116.2427778,32.74611111,15294,25.477,13.458,151.57
970.00,-116.2419444,32.74472222,15356,25.648,13.568,153.13
971.00,-116.2411111,32.74361111,15420,25.532,13.87,154.74
971.00,-116.2405556,32.74222222,15485,26.224,14.42,156.54
972.00,-116.2397222,32.74083333,15554,26.158,14.919,158.42
974.00,-116.2391667,32.73944444,15624,27.515,13.942,159.68
975.00,-116.2386111,32.73833333,15692,28.658,10.684,159.82
975.00,-116.2380556,32.73694444,15747,31.014,8.064,160.39
976.00,-116.2375,32.73555556,15785,35.118,6.1029,161.31
977.00,-116.2369444,32.73416667,15806,37.326,5.1361,163.38
979.00,-116.2363889,32.73277778,15813,38.128,5.0317,166.16
979.00,-116.2361111,32.73138889,15812,38.864,4.4769,168.26
980.00,-116.2355556,32.72972222,15803,38.562,4.0155,170.46
981.00,-116.2352778,32.72833333,15788,38.029,3.8672,172.94
983.00,-116.235,32.72694444,15770,39.359,4.0265,175.73
984.00,-116.2347222,32.72527778,15750,40.682,4.2188,178.87
984.00,-116.2347222,32.72388889,15730,40.803,4.1748,181.81
985.00,-116.2344444,32.72222222,15710,40.391,4.2737,184.6
987.00,-116.2344444,32.72083333,15692,40.413,4.4879,187.4
988.00,-116.2347222,32.71916667,15675,36.068,5.0812,190.25
988.00,-116.2347222,32.7175,15665,20.555,6.5479,191.59
989.00,-116.235,32.71611111,15665,14.661,8.1409,190.5
991.00,-116.235,32.71444444,15675,10.519,5.5701,189.72
992.00,-116.2352778,32.71277778,15679,10.14,2.027,190.44
992.00,-116.2355556,32.71138889,15667,11.168,-0.30762,190.83
993.00,-116.2358333,32.70972222,15638,11.711,-0.30762,191.27
994.00,-116.2361111,32.70833333,15598,11.953,-0.64819,191.73
996.00,-116.2363889,32.70666667,15548,12.816,-1.6205,192.17
996.00,-116.2366667,32.705,15491,14.079,-2.005,192.95
997.00,-116.2369444,32.70333333,15427,16.271,-1.9446,193.91
998.00,-116.2372222,32.70166667,15361,17.325,-1.1261,195.19
1000.00,-116.2377778,32.7,15297,16.518,-0.67017,196.3
1000.00,-116.2380556,32.69833333,15237,13.431,-0.54382,196.84
1005.00,-116.24,32.69166667,15062,10.596,3.5541,199.83
1009.00,-116.2422222,32.685,15164,-7.9376,14.859,199.45
1013.00,-116.2441667,32.67861111,15655,-17.314,19.44,193.78
1017.00,-116.2455556,32.67222222,16255,-3.1201,17.1,192.7
1021.00,-116.2466667,32.66611111,16757,1.3843,15.76,192.48
1025.00,-116.2477778,32.65972222,17159,-2.0325,10.695,192.13
1029.00,-116.2491667,32.65361111,17401,-0.14832,8.1573,192.13
1032.00,-116.2502778,32.64722222,17519,-0.77454,6.8994,192.02
1036.00,-116.2513889,32.64083333,17591,-6.04E-02,8.2288,191.97
1040.00,-116.2527778,32.63416667,17708,-4.3396,7.5037,190.94
1044.00,-116.2538889,32.62777778,17834,-3.9771,9.3658,189.59
1048.00,-116.2547222,32.62111111,18022,-11.481,10.662,186.56
1052.00,-116.2555556,32.61444444,18246,-7.8937,10.184,184.86
1056.00,-116.2561111,32.60777778,18470,-4.2352,9.4043,182.85
1060.00,-116.2563889,32.60111111,18669,0,10.816,182.53
1064.00,-116.2566667,32.59444444,18893,-0.87341,11.03,181.98
1068.00,-116.2569444,32.58777778,19030,1.582,6.004,182.03
1072.00,-116.2572222,32.58083333,19111,3.8617,9.4757,182.93
1076.00,-116.2577778,32.57416667,19295,0.7196,10.646,183.12
1081.00,-116.2580556,32.56722222,19516,-0.23621,7.4323,182.36
1085.00,-116.2586111,32.56027778,19636,-12.563,5.1691,180.92
1089.00,-116.2588889,32.55305556,19672,0.45044,5.4712,180.73
1093.00,-116.2588889,32.54583333,19691,0.54382,4.1693,180.92
1097.00,-116.2591667,32.53861111,19679,3.3398,4.021,181.02
1101.00,-116.2597222,32.53111111,19668,22.434,3.9771,186.6
1105.00,-116.2608333,32.52361111,19674,32.767,4.9548,192.58
1109.00,-116.2627778,32.51611111,19722,47.109,6.5808,205.09
1112.00,-116.2661111,32.50944444,19818,50.614,6.6412,218.39
1116.00,-116.2708333,32.50361111,19883,59.189,3.8177,229.96
1120.00,-116.2769444,32.49888889,19854,61.743,2.6642,248.03
1124.00,-116.2838889,32.49638889,19743,62.639,0.49988,265.37
1128.00,-116.2911111,32.49583333,19541,62.617,-1.4612,280.8
1132.00,-116.2983333,32.49722222,19253,59.568,-2.807,297.33
1136.00,-116.305,32.50083333,18914,55.651,-2.6752,312.42
1140.00,-116.3105556,32.50611111,18596,51.4,-1.8732,326.89
1144.00,-116.3144444,32.51277778,18325,50.405,0.21423,341.46
1148.00,-116.3166667,32.52,18224,35.519,6.5588,354.85
1152.00,-116.3172222,32.52777778,18436,15.304,11.234,9.89E-02
1157.00,-116.3172222,32.53527778,18808,5.4602,11.475,0.68115
1161.00,-116.3169444,32.54277778,19184,5.202,12.068,2.2797
1165.00,-116.3166667,32.55,19530,6.0425,9.0253,3.2574
1169.00,-116.3163889,32.5575,19791,9.1681,8.7177,4.7406
1173.00,-116.3158333,32.56472222,20029,24.994,7.597,8.1519
1177.00,-116.3147222,32.57222222,20224,12.579,8.4869,12.931
1181.00,-116.3136111,32.57944444,20410,-63.759,3.9276,0.86792
1185.00,-116.3138889,32.58694444,20387,-60.172,-0.2417,349.85
1188.00,-116.3155556,32.59444444,20175,-50.499,-1.4557,337.65
1192.00,-116.3188889,32.60138889,19939,-15.282,0.12085,330.81
1196.00,-116.3225,32.60833333,19786,0.45044,0.97778,332.01
1200.00,-116.3263889,32.61527778,19687,-1.4996,0.54382,331.51
1204.00,-116.3305556,32.6225,19592,1.1371,0.91187,331.46
1208.00,-116.3347222,32.62972222,19468,0,-1.1865,331.28
1212.00,-116.3388889,32.63694444,19284,1.7633,-0.87341,331.29
1216.00,-116.3430556,32.64444444,19106,0.15381,-1.0272,331.48
1220.00,-116.3472222,32.65222222,18921,0.53833,-0.87891,331.2
1224.00,-116.3516667,32.65972222,18745,0.26917,-0.79102,331
1228.00,-116.3558333,32.6675,18585,2.1149,-6.04E-02,331.23
1233.00,-116.36,32.67555556,18478,56.508,1.5491,340.96
1237.00,-116.3625,32.68388889,18380,66.248,0.21973,357.91
1241.00,-116.3622222,32.6925,18271,56.261,2.384,14.947
1245.00,-116.3594444,32.70083333,18244,62.672,3.0817,31.536
1249.00,-116.3544444,32.7075,18220,71.312,2.1643,55.613
1253.00,-116.3472222,32.71194444,18152,71.285,0.67017,78.344
1254.00,-116.3452778,32.7125,18124,64.66,0.20874,81.332
1254.00,-116.3430556,32.71277778,18090,62.825,0.18127,84.326
1255.00,-116.3411111,32.71305556,18051,60.875,-0.39001,87.852
1257.00,-116.3391667,32.71305556,18007,59.859,-0.57678,91.071
1258.00,-116.3369444,32.71333333,17960,56.602,-0.75256,94.351
1258.00,-116.335,32.71305556,17909,50.768,-1.181,96.158
1259.00,-116.3327778,32.71277778,17855,42.748,-1.5051,97.592
1261.00,-116.3305556,32.7125,17801,15.672,-0.93384,98.421
1262.00,-116.3286111,32.71222222,17751,6.2238,-0.30762,97.405
1262.00,-116.3263889,32.71194444,17707,5.5151,-0.26917,97.614
1263.00,-116.3241667,32.71166667,17667,6.0645,-0.20874,98.119
1264.00,-116.3222222,32.71138889,17630,2.1039,0,98.102
1266.00,-116.32,32.71111111,17598,-0.23621,1.8127,98.004
1266.00,-116.3177778,32.71055556,17578,0.39551,1.203,97.795
1267.00,-116.3155556,32.71027778,17564,1.0547,2.016,97.921
1268.00,-116.3133333,32.71,17556,1.5161,2.2412,97.949
1270.00,-116.3111111,32.70972222,17554,0.81299,2.384,97.987
1271.00,-116.3091667,32.70916667,17556,1.1975,2.3566,98.02
1271.00,-116.3069444,32.70888889,17559,1.2744,2.1918,98.047
1272.00,-116.3047222,32.70861111,17562,0.42847,2.1643,98.064
1274.00,-116.3025,32.70805556,17566,-5.7953,2.8015,97.943
1278.00,-116.2933333,32.70722222,17642,-67.374,4.9988,81.964
1282.00,-116.285,32.70916667,17819,-53.707,13.03,52.218
1285.00,-116.2791667,32.71416667,18432,-54.201,23.593,27.675
1289.00,-116.2761111,32.72027778,19320,-70.807,22.753,7.7838
1293.00,-116.2752778,32.72666667,20102,-85.963,15.98,344.53
1296.00,-116.2766667,32.73138889,20468,-88.028,8.7836,327.67
1297.00,-116.2772222,32.73305556,20537,-90.61,5.4272,323.65
1299.00,-116.2783333,32.73444444,20575,-90.807,1.4008,323.39
1300.00,-116.2791667,32.73555556,20580,-85.836,-2.1863,320.48
1300.00,-116.28,32.73694444,20554,-75.009,-4.1583,318.75
1301.00,-116.2813889,32.73833333,20495,-64.336,-6.9818,319.16
1302.00,-116.2825,32.73972222,20410,-45.709,-7.998,316.9
1304.00,-116.2836111,32.74111111,20307,-28.295,-6.8994,315.23
1304.00,-116.2847222,32.74222222,20194,13.101,-4.9713,316.05
1305.00,-116.2861111,32.74361111,20081,54.355,-0.26917,326.5
1306.00,-116.2872222,32.745,19982,68.06,-2.6532,339.21
1308.00,-116.2880556,32.74666667,19891,70.95,-3.7958,349.62
1312.00,-116.2888889,32.75305556,19561,63.77,0.89539,26.175
1316.00,-116.2863889,32.75861111,19429,38.254,13.694,46.302
1320.00,-116.2822222,32.7625,19642,51.372,18.138,65.215
1323.00,-116.2775,32.76472222,19970,65.484,16.88,91.615
1327.00,-116.2727778,32.76472222,20195,69.131,9.7723,113.02
1331.00,-116.2683333,32.76277778,20225,46.027,7.2839,128.35
1335.00,-116.2641667,32.76,20111,47.417,2.6477,138.83
1339.00,-116.2608333,32.75611111,19843,25.834,-0.11536,143.05
1343.00,-116.2572222,32.75166667,19549,12.409,5.3723,146.04
1347.00,-116.2538889,32.74694444,19463,-63.699,4.054,124.45
1351.00,-116.2491667,32.74361111,19336,-72.186,-0.42297,96.29
1355.00,-116.2436111,32.74277778,18996,-76.256,-9.9481,76.278
1359.00,-116.2380556,32.74388889,18280,-71.873,-22.115,52.894
1363.00,-116.2344444,32.74611111,17506,-59.453,-22.549,31.904
1363.00,-116.2336111,32.74722222,17232,-53.295,-20.627,25.34
1364.00,-116.2325,32.74861111,16949,-56.728,-22.28,23.659
1365.00,-116.2319444,32.75,16672,-53.168,-21.808,17.803
1367.00,-116.2311111,32.75138889,16392,-43.275,-20.374,12.431
1368.00,-116.2305556,32.75305556,16121,-37.106,-17.457,10.206
1368.00,-116.23,32.75472222,15862,-37.403,-16.397,7.5861
1369.00,-116.2297222,32.75638889,15613,-45.038,-16.699,3.0157
1371.00,-116.2294444,32.75805556,15371,-41.946,-14.222,356.6
1372.00,-116.2294444,32.76,15151,-14.139,-8.7067,356.07
1372.00,-116.2294444,32.76194444,14974,-4.6582,-4.3506,358.02
1373.00,-116.2291667,32.76388889,14844,-3.3124,-0.66467,356.97
1375.00,-116.2294444,32.76583333,14762,-6.04E-02,2.7466,356.85
1376.00,-116.2294444,32.76805556,14728,1.7633,5.6744,357.33
1376.00,-116.2294444,32.77,14738,1.6534,10.712,357.65
1377.00,-116.2294444,32.77222222,14803,1.6919,13.134,357.18
1379.00,-116.2294444,32.77416667,14912,2.1918,14.156,357.36
1380.00,-116.2294444,32.77611111,15044,1.0547,14.376,357.42
1380.00,-116.2294444,32.77805556,15190,7.9596,12.03,357.58
1381.00,-116.2294444,32.78027778,15328,14.293,10.426,358.41
1385.00,-116.2291667,32.78861111,15785,15.397,9.2615,0.83496
1389.00,-116.2288889,32.79722222,16173,2.818,7.2455,1.9391
1393.00,-116.2283333,32.80611111,16464,-26.472,6.059,0.15381
1397.00,-116.2291667,32.815,16785,-62.88,10.47,337.74
1401.00,-116.2330556,32.82277778,17300,-62.353,14.689,313.32
1406.00,-116.2397222,32.82805556,17983,-71.494,14.052,289.15
1410.00,-116.2475,32.83027778,18615,-68.247,14.908,266.28
1411.00,-116.2513889,32.83,18926,-67.028,15.765,254.02
1413.00,-116.2533333,32.82972222,19085,-66.154,16.194,248.63
1414.00,-116.2552778,32.82888889,19245,-67.192,15.991,243.83
1414.00,-116.2569444,32.82833333,19403,-63.858,16.046,238.73
1415.00,-116.2588889,32.8275,19562,-44.89,17.078,237.27
1417.00,-116.2605556,32.82638889,19727,-34.794,19.292,236
1418.00,-116.2622222,32.82527778,19912,-45.736,18.858,234.04
1418.00,-116.2636111,32.82416667,20087,-65.759,17.067,229.13
1419.00,-116.2652778,32.82305556,20253,-71.719,14.766,224.39
1420.00,-116.2666667,32.82166667,20403,-54.651,11.893,226.88
1422.00,-116.2680556,32.82055556,20531,-33.558,10.113,227.66
1422.00,-116.2694444,32.81916667,20637,-10.129,8.1903,226.96
1423.00,-116.2708333,32.81777778,20722,-16.43,8.5583,226.03
1424.00,-116.2722222,32.81638889,20798,-16.271,9.7174,225.15
1426.00,-116.2736111,32.815,20877,-28.218,12.173,221.83
1427.00,-116.275,32.81361111,20965,-34.733,11.497,220.31
1427.00,-116.2763889,32.81222222,21057,-29.405,9.256,219.68
1428.00,-116.2777778,32.81055556,21141,-20.572,9.8328,219.25
1430.00,-116.2788889,32.80888889,21219,-80.42,9.0692,214.39
1431.00,-116.2802778,32.8075,21281,-74.372,4.7186,206.73
1431.00,-116.2811111,32.80555556,21326,-71.609,5.0427,201.08
1432.00,-116.2822222,32.80388889,21365,-16.655,8.4869,199.93
1434.00,-116.2830556,32.80194444,21417,35.239,9.3823,210.59
1435.00,-116.2838889,32.80027778,21478,13.629,6.2897,209.6
1439.00,-116.2880556,32.79305556,21722,0.86243,9.7943,209.39
1443.00,-116.2925,32.78583333,22070,12.843,9.5746,212.39
1447.00,-116.2972222,32.77888889,22535,60.727,17.238,230.16
1451.00,-116.3036111,32.77416667,23124,61.144,16.688,253.38
1455.00,-116.3108333,32.77166667,23784,-46.318,25.681,247.14
1458.00,-116.3172222,32.76833333,24463,-71.565,16.71,222.27
1462.00,-116.3222222,32.76361111,24857,-87.451,5.191,206.97
1466.00,-116.3258333,32.7575,24839,-79.552,-3.587,190.67
1470.00,-116.3277778,32.75083333,24472,-47.23,-3.7903,178.91
1474.00,-116.3280556,32.74333333,24075,-20.089,-0.98328,173.45
1478.00,-116.3277778,32.73583333,23763,-9.5197,-2.75E-02,171.57
1482.00,-116.3272222,32.72833333,23536,41.462,4.9109,180.41
1486.00,-116.3277778,32.72111111,23448,58.326,4.1473,200.43
1490.00,-116.3305556,32.71472222,23363,66.473,1.6644,220.34
1494.00,-116.3352778,32.70944444,23182,59.453,0.68665,240.28
1498.00,-116.3411111,32.70611111,22946,53.784,3.30E-02,255.92
1503.00,-116.3472222,32.70472222,22668,55.042,-1.17,272.8
1507.00,-116.3536111,32.70472222,22285,61.249,-6.9434,287.09
1511.00,-116.36,32.70611111,21784,-0.87341,-2.2687,285.4
1515.00,-116.3663889,32.70777778,21418,-14.282,-0.11536,284.71
1519.00,-116.3730556,32.70944444,21163,-7.9266,1.2854,281.31
1523.00,-116.38,32.71055556,20974,6.048,1.582,282.39
1527.00,-116.3869444,32.71194444,20842,4.2462,1.6425,283.72
1531.00,-116.3938889,32.71333333,20719,2.75E-02,1.17,283.6
1534.00,-116.4008333,32.715,20598,-0.11536,1.9446,283.58
1538.00,-116.4080556,32.71638889,20502,-8.3936,2.9828,281.77
1542.00,-116.4152778,32.7175,20441,-6.6577,2.2961,280.08
1546.00,-116.4225,32.71861111,20366,-1.4447,1.8622,279.59
1550.00,-116.4297222,32.71972222,20263,-8.79E-02,1.3733,279.54
1554.00,-116.4372222,32.72083333,20144,2.1259,1.637,279.57
1558.00,-116.4447222,32.72194444,20035,-0.42297,1.3623,279.67
1562.00,-116.4522222,32.72305556,19931,2.6642,1.0547,280
1566.00,-116.4597222,32.72444444,19820,0.99426,1.3129,280.2
1570.00,-116.4672222,32.72555556,19720,1.1371,1.3623,280.44
1574.00,-116.475,32.72666667,19618,-1.1371,1.0931,280.24
1579.00,-116.4825,32.72805556,19518,-0.71411,1.181,280.61
1583.00,-116.4902778,32.72916667,19421,0.78003,1.0327,280.43
1587.00,-116.4980556,32.73055556,19318,-2.1204,0.76355,280.01
1591.00,-116.5061111,32.73166667,19200,-1.6644,0.46692,279.76
1595.00,-116.5138889,32.73277778,19089,-3.3124,1.1316,279.06
1599.00,-116.5219444,32.73388889,19004,-1.9226,2.7081,278.43
1603.00,-116.5297222,32.735,19001,0.18127,3.2959,278.46
1607.00,-116.5377778,32.73583333,19023,0.81299,2.6257,278.43
1611.00,-116.5455556,32.73694444,19014,1.1755,3.241,278.38
1614.00,-116.5536111,32.73777778,18996,6.04E-02,2.3401,278.59
1618.00,-116.5611111,32.73888889,18956,-2.3016,1.8073,278.22
1622.00,-116.5688889,32.73972222,18890,-0.26917,1.4063,278.03
1626.00,-116.5766667,32.74055556,18798,-0.14832,2.5378,278.06
1630.00,-116.5844444,32.74166667,18736,-0.75256,1.7084,278.03
1634.00,-116.5919444,32.7425,18645,-2.9443,0.81848,277.9
1638.00,-116.5997222,32.74333333,18533,-1.8073,1.0657,277.4
1642.00,-116.6075,32.74416667,18430,0.86243,1.2415,277.11
1646.00,-116.6152778,32.745,18321,-0.12085,0.71411,277.21
1650.00,-116.6227778,32.74555556,18209,-0.69214,0.67017,276.85
1655.00,-116.6305556,32.74638889,18102,-45.769,2.5653,268.01
1659.00,-116.6380556,32.74555556,18069,-51.724,4.444,252.61
1663.00,-116.645,32.74277778,18069,-60.661,2.9443,235.74
1667.00,-116.6508333,32.73833333,17999,-56.887,1.3953,220.42
1671.00,-116.6552778,32.73277778,17860,-50.784,0.79102,206.61
1675.00,-116.6580556,32.72611111,17702,-45.873,0.97229,194.64
1679.00,-116.6597222,32.71916667,17549,-43.352,-3.4662,187.89
1683.00,-116.6605556,32.71194444,17219,-48.702,-5.647,178.3
1687.00,-116.66,32.70472222,16770,-32.514,-6.8445,170.84
1690.00,-116.6586111,32.6975,16301,-35.321,-4.6472,161.55
1694.00,-116.6561111,32.69027778,15944,-29.833,-3.3124,154.88
1698.00,-116.6525,32.68333333,15594,-27.894,-4.5813,150.07
1702.00,-116.6483333,32.67666667,15221,-19.402,-4.2957,145.72
1706.00,-116.6436111,32.67,14863,-4.1199,-2.9498,142.23
1710.00,-116.6388889,32.66388889,14583,-2.9883,-2.6147,143.55
1714.00,-116.6338889,32.65722222,14323,14.398,-2.818,144.48
1718.00,-116.6291667,32.65083333,14045,32.481,-3.5101,148.89
1722.00,-116.6252778,32.64361111,13714,62.413,-4.1309,159.54
1726.00,-116.6230556,32.63611111,13260,68.06,-7.663,180.16
1731.00,-116.6236111,32.62833333,12727,70.527,-7.608,208
1735.00,-116.6277778,32.62222222,12173,75.542,-9.4922,237.99
1739.00,-116.6344444,32.61888889,11526,70.247,-10.261,268.63
1743.00,-116.6416667,32.61972222,10862,70.845,-10.047,299.19
1747.00,-116.6475,32.62416667,10219,68.478,-8.7012,329.9
1751.00,-116.6502778,32.63111111,9625,70.291,-8.6792,359.81
1755.00,-116.6497222,32.63888889,8984,63.853,-11.365,18.199
1759.00,-116.6469444,32.64611111,8280,50.12,-11.442,33.261
1763.00,-116.6425,32.6525,7621,12.513,-8.5803,37.37
1766.00,-116.6375,32.65916667,7117,2.2632,-6.1084,38.309
1770.00,-116.6322222,32.66555556,6730,-13.315,-4.8615,37.26
1774.00,-116.6275,32.67222222,6390,-15.051,-4.6033,33.805
1778.00,-116.6227778,32.67944444,6053,-12.53,-5.1086,31.498
1782.00,-116.6186111,32.68666667,5725,-3.9661,-3.8617,29.861
1786.00,-116.6141667,32.69416667,5463,-0.14832,-3.1256,29.053
1790.00,-116.61,32.70194444,5233,2.75E-02,-0.83496,28.96
1794.00,-116.6058333,32.70944444,5134,-4.9658,-0.8844,28.026
1798.00,-116.6019444,32.71694444,5048,-2.7466,-1.1151,27.164
1802.00,-116.5980556,32.72472222,4966,-0.7196,-2.75E-02,26.79
1806.00,-116.5941667,32.73222222,4910,-3.4003,-0.94482,26.29
1811.00,-116.5902778,32.73972222,4816,-1.2854,-1.5765,26.071
1815.00,-116.5866667,32.74722222,4677,-4.6198,-1.9281,25.598
1819.00,-116.5830556,32.75472222,4507,-2.5983,-2.7905,24.708
1823.00,-116.5794444,32.76222222,4303,-2.8619,-3.1366,24.28
1827.00,-116.5761111,32.76972222,4113,-3.219,-1.4612,23.066
1831.00,-116.5730556,32.77722222,3965,0.92834,-1.2415,22.967
1835.00,-116.5697222,32.78444444,3821,-5.0317,-1.9061,22.451
1839.00,-116.5666667,32.79194444,3662,-10.245,-1.4886,21.638
1843.00,-116.5638889,32.79944444,3489,-23.132,-2.796,18.913
1846.00,-116.5613889,32.80694444,3259,-15.859,-3.8617,15.463
1850.00,-116.5594444,32.81444444,3008,-12.629,-2.9333,12.651
1854.00,-116.5580556,32.82222222,2801,-15.271,-1.8622,9.5361
1858.00,-116.5566667,32.82972222,2640,-25.175,-1.6974,5.191
1862.00,-116.5563889,32.8375,2475,-22.072,-1.0657,359.74
1866.00,-116.5563889,32.845,2330,-18.474,-1.2195,356.7
1870.00,-116.5569444,32.85222222,2205,-7.8113,-1.3403,353.19
1874.00,-116.5580556,32.85944444,2108,-18.655,0.75806,349.52
1878.00,-116.5594444,32.86611111,2056,-34.849,0.91187,343.33
1882.00,-116.5616667,32.8725,1994,-51.136,1.2579,330.26
1887.00,-116.5652778,32.87805556,1939,-46.132,1.2524,315.9
1891.00,-116.57,32.8825,1849,-36.508,-0.60974,306.48
1895.00,-116.5755556,32.88638889,1717,-38.139,-8.79E-02,296.83
1899.00,-116.5813889,32.88916667,1588,-32.558,0.14832,287.24
1903.00,-116.5872222,32.89083333,1468,-29.976,-0.14832,278.95
1907.00,-116.5930556,32.89166667,1348,-32.102,0.57678,270.35
1911.00,-116.5986111,32.89166667,1265,-40.682,2.8619,256.76
1915.00,-116.6036111,32.89027778,1222,-39.375,3.8177,245.62
1919.00,-116.6080556,32.88805556,1174,-31.399,4.6143,233.55
1922.00,-116.6116667,32.88527778,1149,-16.479,8.1848,226.23
1926.00,-116.615,32.88222222,1216,-3.6694,9.212,226.38
1930.00,-116.6183333,32.87916667,1272,-3.9276,8.2947,224.53
1934.00,-116.6213889,32.87611111,1294,-23.752,7.8882,219.84
1938.00,-116.6241667,32.87277778,1293,-24.554,8.0969,209.12
1942.00,-116.6261111,32.86888889,1321,-14.529,10.811,202.55
1946.00,-116.6277778,32.86527778,1397,-8.5693,11.904,199.62
1950.00,-116.6291667,32.86138889,1446,0.50537,9.657,199.2
1954.00,-116.6305556,32.8575,1454,1.225,8.3386,200.06
1958.00,-116.6319444,32.85388889,1439,0.14832,7.1301,200.47
1963.00,-116.6333333,32.85027778,1397,1.8951,6.2512,200.7
1967.00,-116.635,32.84666667,1322,2.6477,6.7841,201.46
1971.00,-116.6363889,32.84305556,1258,1.1865,8.1244,202.6
1975.00,-116.6377778,32.83972222,1206,6.394,7.9651,205.26
1979.00,-116.6394444,32.83611111,1149,0.90637,8.1024,204.46
1983.00,-116.6408333,32.83305556,1098,1.4282,7.3828,204.27
1987.00,-116.6425,32.82944444,1043,2.9773,9.4537,204.97
1991.00,-116.6441667,32.82638889,1008,1.5985,9.6515,205.58
1995.00,-116.6458333,32.82305556,989,1.1975,10.399,205.62
1998.00,-116.6475,32.81972222,983,-0.83496,8.3331,205.85
2002.00,-116.6491667,32.81638889,963,-1.5436,10.135,205
2006.00,-116.6508333,32.81277778,944,1.5051,8.7726,205.67
2010.00,-116.6525,32.80944444,916,-1.7688,7.5421,205.44
2014.00,-116.6541667,32.80611111,882,-0.30212,7.9376,205.33
2018.00,-116.6555556,32.8025,823,1.5601,7.5476,204.82
2022.00,-116.6572222,32.79916667,759,1.3843,7.4707,204.68
2026.00,-116.6588889,32.79583333,698,-1.2415,6.9324,204.7
2030.00,-116.6605556,32.7925,633,-1.9501,7.6025,204.36
2034.00,-116.6619444,32.78916667,567,-0.23071,8.4595,203.54
2039.00,-116.6633333,32.78583333,513,3.6584,8.0695,204.2
2043.00,-116.665,32.7825,471,4.0485,9.2395,205.78
2047.00,-116.6666667,32.77916667,421,-1.214,7.674,206.37
2051.00,-116.6683333,32.77583333,366,-1.1755,6.1359,205.33
2055.00,-116.67,32.7725,306,-1.4172,6.8115,204.04
2059.00,-116.6716667,32.76916667,240,2.2852,7.0862,205.69
2063.00,-116.6730556,32.76583333,171,2.7576,7.1631,205.57
2067.00,-116.6747222,32.7625,108,-0.29114,7.4652,205.94
2071.00,-116.6763889,32.75944444,50,-1.3953,10.146,205.22
2075.00,-116.6777778,32.75611111,41,-0.51086,9.245,206.2
2078.00,-116.6791667,32.75333333,40,-0.39551,8.042,205.78
2082.00,-116.6802778,32.75111111,40,0.39551,8.3936,206.27
2086.00,-116.6813889,32.74916667,38,0.67017,-0.42847,205.43
2090.00,-116.6822222,32.7475,39,0.82397,2.75E-02,205.02
2094.00,-116.6827778,32.74611111,38,-0.36255,-0.12085,204.97
2106.00,-116.6844444,32.74277778,38,-0.4834,-0.58228,203.62
2110.00,-116.6847222,32.74194444,38,-0.35706,-0.36255,203.63
2115.00,-116.685,32.74138889,38,-0.26917,-0.33508,205.4
2119.00,-116.6855556,32.74055556,38,-0.20874,-0.61523,207.99
2123.00,-116.6858333,32.74,38,-0.43396,-0.5603,207.88
2127.00,-116.6861111,32.73916667,38,-0.26917,-0.54932,204.66
2131.00,-116.6863889,32.73861111,37,-0.78552,-0.54932,205.32
2135.00,-116.6866667,32.73805556,37,-0.45593,-0.61523,205.18
2139.00,-116.6869444,32.7375,36,-0.63721,-0.52185,204.55
2143.00,-116.6872222,32.73694444,36,-0.7251,-0.54932,206.69
